[
  {
    "name": "none",
    "events": []
  },
  {
    "name": "tomato",
    "events": [
      {
        "CTE": "harvesting",
        "date": "2023-11-11T14:41:00",
        "location": {
          "name": "Southerns Best LLC Tomatoes",
          "street": "3174 County Rd 830",
          "city": "Felda",
          "state": "FL",
          "zip": "33930",
          "field": "A8"
        },
        "serviceProvider": {
          "name": "Pro Pickers of Florida, Inc.",
          "street": "2838 County Rd 47",
          "city": "Felda",
          "state": "FL",
          "zip": "33930"
        },
        "quantity": 1,
        "UOM": "gondola",
        "weight": 18000,
        "notes": "Green-harvested at M3 stage.",
        "link": "https://www.ams.usda.gov/grades-standards/tomato-grades-and-standards",
        "linkDomain": "ams.usda.gov",
        "map": 1
      },
      {
        "CTE": "cooling",
        "date": "2023-11-11T15:41:00",
        "location": {
          "name": "Unique Cold Storage",
          "street": "1440 SW 6th Court",
          "city": "Pompano Beach",
          "state": "FL",
          "zip": "33069",
          "building": "105"
        },
        "serviceProvider": {
          "name": "Unique Cold Storage",
          "street": "1440 SW 6th Court",
          "city": "Pompano Beach",
          "state": "FL",
          "zip": "33069"
        },
        "quantity": 1,
        "UOM": "gondola",
        "weight": 18000,
        "notes": "Stored at 68°F."
      },
      {
        "CTE": "grading",
        "date": "2023-11-12T15:41:00",
        "location": {
          "name": "Unique Cold Storage",
          "street": "1440 SW 6th Court",
          "city": "Pompano Beach",
          "state": "FL",
          "zip": "33069",
          "building": "107"
        },
        "serviceProvider": {
          "name": "Unique Cold Storage",
          "street": "1440 SW 6th Court",
          "city": "Pompano Beach",
          "state": "FL",
          "zip": "33069"
        },
        "quantity": 18,
        "UOM": "bin",
        "weight": 1000,
        "notes": "Graded as U.S. No. 1.",
        "link": "https://www.ams.usda.gov/grades-standards/tomato-grades-and-standards",
        "linkDomain": "ams.usda.gov"
      },
      {
        "CTE": "ripening",
        "date": "2023-11-13T15:41:00",
        "location": {
          "name": "Quincy Tomato Corporation",
          "street": "20 N Graves St",
          "city": "Quincy",
          "state": "FL",
          "zip": "32351",
          "building": "A3"
        },
        "serviceProvider": {
          "name": "Quincy Tomato Corporation",
          "street": "20 N Graves St",
          "city": "Quincy",
          "state": "FL",
          "zip": "32351"
        },
        "quantity": 18,
        "UOM": "bin",
        "weight": 1000,
        "notes": "Ethylene ripened at 71°F."
      },
      {
        "CTE": "initial packing",
        "date": "2023-11-17T15:41:00",
        "location": {
          "name": "Gadsden Tomato Co",
          "street": "218 N Graves St",
          "city": "Quincy",
          "state": "FL",
          "zip": "32351",
          "building": "1"
        },
        "serviceProvider": {
          "name": "Gadsden Tomato Co",
          "street": "20 N Graves St",
          "city": "Quincy",
          "state": "FL",
          "zip": "32351"
        },
        "quantityBefore": 18,
        "UOMBefore": "bin",
        "weightBefore": 1000,
        "quantity": 9,
        "UOM": "pallet",
        "weight": 2000,
        "TLC": "A8-876HB93D5"
      },
      {
        "CTE": "shipping",
        "date": "2023-11-21T07:33:00",
        "location": {
          "name": "Central Florida Freezer",
          "street": "1801 Bradford Ave",
          "city": "Leesburg",
          "state": "FL",
          "zip": "34748",
          "building": "W754 S279"
        },
        "serviceProvider": {
          "name": "Central Florida Freezer",
          "street": "1801 Bradford Ave",
          "city": "Leesburg",
          "state": "FL",
          "zip": "34748"
        },
        "quantity": 9,
        "UOM": "pallet",
        "weight": 2000,
        "TLC": "A8-876HB93D5"
      },
      {
        "CTE": "receiving",
        "date": "2023-11-21T08:18:00",
        "location": {
          "name": "Monte Package Company LLC",
          "street": "4300 Steward Road",
          "city": "Lakeland",
          "state": "FL",
          "zip": "33815",
          "building": "10"
        },
        "serviceProvider": {
          "name": "Monte Package Company LLC",
          "street": "4300 Steward Road",
          "city": "Lakeland",
          "state": "FL",
          "zip": "33815"
        },
        "quantity": 9,
        "UOM": "pallet",
        "weight": 2000,
        "TLC": "A8-876HB93D5"
      },
      {
        "CTE": "repackaging",
        "date": "2023-11-22T09:08:00",
        "location": {
          "name": "Monte Package Company LLC",
          "street": "4300 Steward Road",
          "city": "Lakeland",
          "state": "FL",
          "zip": "33815",
          "building": "11"
        },
        "serviceProvider": {
          "name": "Monte Package Company LLC",
          "street": "4300 Steward Road",
          "city": "Lakeland",
          "state": "FL",
          "zip": "33815"
        },
        "quantityBefore": 9,
        "UOMBefore": "pallet",
        "weightBefore": 2000,
        "TLCBefore": "A8-876HB93D5",
        "quantity": 720,
        "UOM": "carton",
        "weight": 25,
        "TLC": "S1-006JI83A0"
      },
      {
        "CTE": "shipping",
        "date": "2023-11-22T08:46:00",
        "location": {
          "name": "Sorting Services Unlimited",
          "street": "4300 Steward Road",
          "city": "Waukesha",
          "state": "WI",
          "zip": "53186",
          "building": "12"
        },
        "serviceProvider": {
          "name": "Sorting Services Unlimited",
          "street": "4300 Steward Road",
          "city": "Waukesha",
          "state": "WI",
          "zip": "53186"
        },
        "quantity": 80,
        "UOM": "carton",
        "weight": 25,
        "TLC": "S1-006JI83A0"
      },
      {
        "CTE": "receiving",
        "date": "2023-11-22T10:31:00",
        "location": {
          "name": "Bag it up, LLC",
          "street": "4300 Steward Road",
          "city": "Waukesha",
          "state": "WI",
          "zip": "53186",
          "building": "C1"
        },
        "serviceProvider": {
          "name": "Bag it up, LLC",
          "street": "4300 Steward Road",
          "city": "Waukesha",
          "state": "WI",
          "zip": "53186"
        },
        "quantity": 80,
        "UOM": "carton",
        "weight": 25,
        "TLC": "S1-006JI83A0"
      },
      {
        "CTE": "repackaging",
        "date": "2023-11-24T11:21:00",
        "location": {
          "name": "Bag it up, LLC",
          "street": "4300 Steward Road",
          "city": "Waukesha",
          "state": "WI",
          "zip": "53186",
          "building": "C1"
        },
        "serviceProvider": {
          "name": "Bag it up, LLC",
          "street": "4300 Steward Road",
          "city": "Waukesha",
          "state": "WI",
          "zip": "53186"
        },
        "quantityBefore": 80,
        "UOMBefore": "carton",
        "weightBefore": 25,
        "TLCBefore": "S1-006JI83A0",
        "quantity": 400,
        "UOM": "bag",
        "weight": 5,
        "TLC": "B8-117KP71F8"
      },
      {
        "CTE": "shipping",
        "date": "2023-11-26T17:38:00",
        "location": {
          "name": "Bag it up, LLC",
          "street": "4300 Steward Road",
          "city": "Waukesha",
          "state": "WI",
          "zip": "53186",
          "building": "C1"
        },
        "serviceProvider": {
          "name": "Bag it up, LLC",
          "street": "4300 Steward Road",
          "city": "Waukesha",
          "state": "WI",
          "zip": "53186"
        },
        "quantity": 100,
        "UOM": "bag",
        "weight": 5,
        "TLC": "B8-117KP71F8"
      },
      {
        "CTE": "receiving",
        "date": "2023-11-26T18:23:00",
        "location": {
          "name": "Big Belly Burgers",
          "street": "4300 Steward Road",
          "city": "Waukesha",
          "state": "WI",
          "zip": "53186",
          "building": "1"
        },
        "serviceProvider": {
          "name": "Big Belly Burgers",
          "street": "4300 Steward Road",
          "city": "Waukesha",
          "state": "WI",
          "zip": "53186"
        },
        "quantity": 100,
        "UOM": "bag",
        "weight": 5,
        "TLC": "B8-117KP71F8"
      },
      {
        "CTE": "storage",
        "date": "2023-11-26T18:23:00",
        "location": {
          "name": "Big Belly Burgers",
          "street": "4300 Steward Road",
          "city": "Waukesha",
          "state": "WI",
          "zip": "53186",
          "building": "1"
        },
        "serviceProvider": {
          "name": "Big Belly Burgers",
          "street": "4300 Steward Road",
          "city": "Waukesha",
          "state": "WI",
          "zip": "53186"
        },
        "quantity": 100,
        "UOM": "bag",
        "weight": 5,
        "TLC": "B8-117KP71F8"
      },
      {
        "CTE": "shipping",
        "date": "2023-11-30T17:38:00",
        "location": {
          "name": "Bag it up, LLC",
          "street": "4300 Steward Road",
          "city": "Waukesha",
          "state": "WI",
          "zip": "53186",
          "building": "C1"
        },
        "serviceProvider": {
          "name": "Bag it up, LLC",
          "street": "4300 Steward Road",
          "city": "Waukesha",
          "state": "WI",
          "zip": "53186"
        },
        "quantity": 8,
        "UOM": "bag",
        "weight": 5,
        "TLC": "B8-117KP71F8"
      },
      {
        "CTE": "receiving",
        "date": "2023-11-30T18:23:00",
        "location": {
          "name": "Big Belly Burgers",
          "street": "4300 Steward Road",
          "city": "Waukesha",
          "state": "WI",
          "zip": "53186",
          "building": "1"
        },
        "serviceProvider": {
          "name": "Bag it up, LLC",
          "street": "4300 Steward Road",
          "city": "Waukesha",
          "state": "WI",
          "zip": "53186"
        },
        "quantity": 8,
        "UOM": "bag",
        "weight": 5,
        "TLC": "B8-117KP71F8"
      },
      {
        "CTE": "sale",
        "date": "2023-12-05T18:23:00",
        "location": {
          "name": "Big Belly Burgers",
          "street": "4300 Steward Road",
          "city": "Waukesha",
          "state": "WI",
          "zip": "53186",
          "building": "1"
        },
        "serviceProvider": {
          "name": "Bag it up, LLC",
          "street": "4300 Steward Road",
          "city": "Waukesha",
          "state": "WI",
          "zip": "53186"
        },
        "quantity": 0.25,
        "UOM": "item",
        "TLC": "B8-117KP71F8"
      }
    ]
  },
  {
    "name": "lettuce",
    "events": [
      {
        "CTE": "Under Construction :)",
        "date": "2023-11-11T14:41:00",
        "location": {
          "name": "Location",
          "street": "Address",
          "city": "City",
          "state": "ST",
          "zip": "00000"
        },
        "serviceProvider": {
          "name": "Business",
          "street": "Address",
          "city": "City",
          "state": "ST",
          "zip": "00000"
        },
        "quantity": 0,
        "UOM": "Things",
        "weight": 0
      }
    ]
  },
  {
    "name": "bread",
    "events": [
      {
        "CTE": "Under Construction :)",
        "date": "2023-11-11T14:41:00",
        "location": {
          "name": "Location",
          "street": "Address",
          "city": "City",
          "state": "ST",
          "zip": "00000"
        },
        "serviceProvider": {
          "name": "Business",
          "street": "Address",
          "city": "City",
          "state": "ST",
          "zip": "00000"
        },
        "quantity": 0,
        "UOM": "Things",
        "weight": 0
      }
    ]
  },
  {
    "name": "hamburger",
    "events": [
      {
        "CTE": "Under Construction :)",
        "date": "2023-11-11T14:41:00",
        "location": {
          "name": "Location",
          "street": "Address",
          "city": "City",
          "state": "ST",
          "zip": "00000"
        },
        "serviceProvider": {
          "name": "Business",
          "street": "Address",
          "city": "City",
          "state": "ST",
          "zip": "00000"
        },
        "quantity": 0,
        "UOM": "Things",
        "weight": 0
      }
    ]
  }
]
